[{"name":"Kennie","description":"Ganglion, right ankle and foot","locationLatitude":28.220406,"locationLongitude":121.038129,"photo":"http://dummyimage.com/209x100.png/ff4444/ffffff","maxCapacity":1},
{"name":"Efrem","description":"Brown-Sequard syndrome at T11-T12","locationLatitude":23.528427,"locationLongitude":116.399409,"photo":"http://dummyimage.com/146x100.png/dddddd/000000","maxCapacity":2},
{"name":"Wyatt","description":"Recurrent and persistent hematuria w oth morphologic changes","locationLatitude":49.6271732,"locationLongitude":16.7664943,"photo":"http://dummyimage.com/179x100.png/cc0000/ffffff","maxCapacity":3},
{"name":"Bell","description":"Adjustment disorders","locationLatitude":3.01334,"locationLongitude":-76.643755,"photo":"http://dummyimage.com/176x100.png/ff4444/ffffff","maxCapacity":4},
{"name":"Lauretta","description":"Lac w/o fb of r bk wl of thorax w penet thoracic cavity","locationLatitude":42.0732393,"locationLongitude":42.8212218,"photo":"http://dummyimage.com/247x100.png/cc0000/ffffff","maxCapacity":5},
{"name":"Isadora","description":"Ped on sktbrd injured in clsn w nonmtr vehicle, unsp, subs","locationLatitude":-6.9485479,"locationLongitude":113.6561725,"photo":"http://dummyimage.com/174x100.png/5fa2dd/ffffff","maxCapacity":6},
{"name":"Marya","description":"Disp fx of shaft of first metacarpal bone, left hand","locationLatitude":-28.8455312,"locationLongitude":-51.8913473,"photo":"http://dummyimage.com/198x100.png/ff4444/ffffff","maxCapacity":7},
{"name":"Say","description":"Disp fx of lateral condyle of unsp tibia, 7thE","locationLatitude":-15.1497334,"locationLongitude":-51.852273,"photo":"http://dummyimage.com/211x100.png/ff4444/ffffff","maxCapacity":8},
{"name":"Mendel","description":"Idiopathic chronic gout, right ankle and foot, with tophus","locationLatitude":10.2995028,"locationLongitude":-61.175278,"photo":"http://dummyimage.com/154x100.png/dddddd/000000","maxCapacity":9},
{"name":"Smith","description":"Corrosion of unspecified degree of buttock, init encntr","locationLatitude":50.0919285,"locationLongitude":13.1629837,"photo":"http://dummyimage.com/120x100.png/cc0000/ffffff","maxCapacity":10}]